{
  "type": "FeatureCollection",
  "features": [
    {
      "type": "Feature",
      "geometry": { "type": "Point", "coordinates": [2.3522, 48.8566] },
      "properties": {
        "name": "Paris Run Club",
        "description": "Le club de running de Paris - Sorties hebdomadaires dans la capitale",
        "url": "https://instagram.com/parisrunclub"
      }
    },
    {
      "type": "Feature",
      "geometry": { "type": "Point", "coordinates": [4.8357, 45.7640] },
      "properties": {
        "name": "Lyon Urban Runners",
        "description": "Courir à Lyon en groupe ! Tous niveaux bienvenus",
        "url": "https://www.instagram.com/lyonurbanrunners/"
      }
    },
    {
      "type": "Feature",
      "geometry": { "type": "Point", "coordinates": [5.3698, 43.2965] },
      "properties": {
        "name": "Marseille Running Team",
        "description": "Running club marseillais - Calanques et centre-ville",
        "url": "https://marseille-running.fr"
      }
    },
    {
      "type": "Feature",
      "geometry": { "type": "Point", "coordinates": [1.4442, 43.6047] },
      "properties": {
        "name": "Toulouse Runners",
        "description": "Club de course à pied toulousain - Ville rose",
        "url": "https://instagram.com/toulouserunners"
      }
    },
    {
      "type": "Feature",
      "geometry": { "type": "Point", "coordinates": [-1.5534, 47.2184] },
      "properties": {
        "name": "Nantes Running Club",
        "description": "Courir à Nantes et ses environs - Loire Atlantique",
        "url": "https://nantes-running.com"
      }
    }
  ]
} 